,City,Cloudiness,Country,Date,Humidity,Lat,Lng,Max Temperature,Wind Speed
0,Ushuaia,20,AR,1669580786,47,-54.8,-68.3,56.82,4.61
1,Hamilton,100,US,1669580532,79,39.1834,-84.5333,54.37,23.02
2,Mahébourg,20,MU,1669580789,83,-20.4081,57.7,71.89,1.14
3,Shenzhen,78,CN,1669580734,97,22.5455,114.0683,77.85,5.75
4,Presidencia Roque Sáenz Peña,0,AR,1669580791,18,-26.7852,-60.4388,100.6,7.76
5,Rikitea,7,PF,1669580793,72,-23.1203,-134.9692,75.24,3.67
6,Bredasdorp,0,ZA,1669580794,80,-34.5322,20.0403,63.27,13.27
7,Iquitos,40,PE,1669580712,79,-3.7481,-73.2472,84.24,9.22
8,Surab,0,PK,1669580796,22,28.4914,66.2585,49.62,8.03
9,Puerto Ayora,55,EC,1669580798,87,-0.7393,-90.3518,75.16,11.99
10,George Town,20,MY,1669580799,91,5.4112,100.3354,79.23,2.3
11,Vestmanna,100,FO,1669580800,93,62.1564,-7.1664,45.52,17.27
12,Tiksi,87,RU,1669580802,99,71.6872,128.8694,-28.57,7.07
13,Summerland,100,CA,1669580803,80,49.5998,-119.6691,37.09,4.61
14,Punta Arenas,0,CL,1669580605,30,-53.15,-70.9167,66.31,16.11
15,Tuktoyaktuk,20,CA,1669580806,75,69.4541,-133.0374,-25.6,3.44
16,Mataura,97,NZ,1669580807,72,-46.1927,168.8643,50.05,2.68
17,Geraldton,0,AU,1669580808,82,-28.7667,114.6,57.61,6.91
18,Busselton,0,AU,1669580810,85,-33.65,115.3333,50.92,11.34
19,Nhulunbuy,100,AU,1669580722,89,-12.2333,136.7667,79.41,0.0
20,Thompson,100,CA,1669580812,93,55.7435,-97.8558,19.56,4.61
21,Saint Paul Harbor,0,US,1669580814,64,57.79,-152.4072,27.91,3.44
22,Lorengau,29,PG,1669580815,75,-2.0226,147.2712,81.16,6.67
23,Thinadhoo,100,MV,1669580817,75,0.5333,72.9333,80.17,5.59
24,Karratha,27,AU,1669580818,44,-20.7377,116.8463,79.39,14.81
25,Jamestown,100,US,1669580819,77,42.097,-79.2353,51.03,6.91
26,Bluff,100,NZ,1669580821,79,-46.6,168.3333,47.71,7.27
27,New Norfolk,61,AU,1669580822,70,-42.7826,147.0587,51.89,4.0
28,Cayenne,20,GF,1669580642,89,4.9333,-52.3333,78.84,5.75
29,Hong Kong,61,HK,1669580825,93,22.2855,114.1577,77.95,8.01
30,Superior,100,US,1669580590,66,46.7208,-92.1041,38.95,9.22
31,Upernavik,100,GL,1669580827,81,72.7868,-56.1549,11.26,4.12
32,Bayburt,18,TR,1669580829,83,40.2589,40.2278,32.88,3.29
33,Kavieng,7,PG,1669580830,70,-2.5744,150.7967,82.85,7.7
34,Umm Kaddadah,11,SD,1669580832,26,13.6017,26.6876,71.46,11.45
35,Fortuna,0,US,1669580781,64,40.5982,-124.1573,55.92,9.22
36,Husavik,100,IS,1669580834,97,66.0449,-17.3389,35.33,22.5
37,Yellowknife,20,CA,1669580836,85,62.456,-114.3525,9.12,13.8
38,Prince Rupert,0,CA,1669580837,74,54.3161,-130.3201,40.69,9.22
39,Araouane,100,ML,1669580839,15,18.9048,-3.5265,78.06,9.48
40,Virginia Beach,100,US,1669580613,81,36.8529,-75.978,68.04,16.11
41,North Bend,100,US,1669580842,100,43.4065,-124.2243,49.15,10.36
42,Isangel,18,VU,1669580843,77,-19.55,169.2667,79.65,6.96
43,Shingū,100,JP,1669580844,61,33.7333,135.9833,54.43,4.72
44,Aklavik,75,CA,1669580846,76,68.2191,-135.0107,-14.8,3.44
45,Taltal,35,CL,1669580847,72,-25.4,-70.4833,67.93,8.43
46,Kaitangata,28,NZ,1669580849,72,-46.2817,169.8464,50.02,1.39
47,Boa Vista,20,BR,1669580850,69,2.8197,-60.6733,82.38,4.61
48,Wagga Wagga,0,AU,1669580851,85,-35.1167,147.3667,57.6,4.38
49,Qandala,46,SO,1669580853,76,11.472,49.8728,77.2,4.25
50,Butaritari,12,KI,1669580854,76,3.0707,172.7902,80.76,11.52
51,Avarua,40,CK,1669580856,61,-21.2078,-159.775,80.65,14.97
52,Itoman,75,JP,1669580857,85,26.1247,127.6694,75.97,11.5
53,Departamento de Maldonado,5,UY,1669580858,60,-34.6667,-54.9167,81.79,16.55
54,Port Augusta,3,AU,1669580860,64,-32.5,137.7667,55.83,9.17
55,Altay,13,CN,1669580861,60,47.8667,88.1167,-17.03,7.2
56,Kahului,40,US,1669580755,81,20.8947,-156.47,78.96,9.22
57,Porbandar,0,IN,1669580864,44,21.6422,69.6093,73.44,8.68
58,Marsaxlokk,100,MT,1669580865,77,35.8419,14.5431,61.41,26.46
59,Provideniya,100,RU,1669580867,95,64.3833,-173.3,15.31,5.37
60,Arraial do Cabo,75,BR,1669580868,83,-22.9661,-42.0278,75.16,26.46
61,Tasiilaq,11,GL,1669580870,61,65.6145,-37.6368,24.96,7.27
62,Severodvinsk,100,RU,1669580871,89,64.5635,39.8302,3.31,8.05
63,Launceston,53,AU,1669580846,76,-41.45,147.1667,49.8,10.36
64,São Filipe,0,CV,1669580874,63,14.8961,-24.4956,78.21,12.91
65,Mount Isa,100,AU,1669580875,83,-20.7333,139.5,74.97,1.14
66,Narsaq,97,GL,1669580877,95,60.9167,-46.05,30.42,8.21
67,Port Alfred,92,ZA,1669580879,93,-33.5906,26.891,64.18,4.0
68,Pevek,96,RU,1669580880,92,69.7008,170.3133,-16.17,2.59
69,Cabo San Lucas,0,MX,1669580882,53,22.8909,-109.9124,81.61,6.91
70,Nyuksenitsa,66,RU,1669580884,98,60.4128,44.2397,9.05,2.95
71,Aden,90,YE,1669580659,69,12.7794,45.0367,79.02,11.12
72,Cape Town,0,ZA,1669580811,64,-33.9258,18.4232,69.28,15.01
73,Mar del Plata,0,AR,1669580887,92,-38.0023,-57.5575,74.82,10.36
74,Bethel,100,US,1669580889,85,41.3712,-73.414,50.54,3.44
75,Castro,95,BR,1669580890,92,-24.7911,-50.0119,63.57,10.98
76,Hermanus,3,ZA,1669580891,78,-34.4187,19.2345,65.8,17.65
77,Olafsvik,43,IS,1669580893,75,64.8945,-23.7142,37.09,12.46
78,Ancud,60,CL,1669580894,57,-41.8697,-73.8203,67.35,5.86
79,Bambous Virieux,20,MU,1669580896,83,-20.3428,57.7575,71.85,1.14
80,Souillac,20,MU,1669580898,83,-20.5167,57.5167,71.98,1.14
81,Bosaso,55,SO,1669580899,75,11.2842,49.1816,77.54,2.75
82,Olinda,20,BR,1669580901,65,-8.0089,-34.8553,82.13,10.36
83,Qaanaaq,15,GL,1669580902,70,77.484,-69.3632,-10.25,6.82
84,Srednekolymsk,69,RU,1669580903,99,67.45,153.6833,-39.23,0.96
85,Longyearbyen,0,SJ,1669580905,86,78.2186,15.6401,28.24,2.3
86,Aykhal,100,RU,1669580906,99,66.0,111.5,-11.31,5.12
87,Dunmore East,20,IE,1669580908,76,52.1514,-6.9861,51.69,16.11
88,Nanortalik,100,GL,1669580909,82,60.1432,-45.2371,29.71,6.85
89,East London,100,ZA,1669580911,83,-33.0153,27.9116,64.89,9.35
90,Port Elizabeth,75,ZA,1669580912,94,-33.918,25.5701,64.69,11.5
91,Port Lincoln,59,AU,1669580913,73,-34.7333,135.8667,54.72,9.66
92,Tanout,59,NE,1669580915,19,14.9709,8.8879,71.58,10.33
93,São Bartolomeu de Messines,80,PT,1669580916,82,37.2602,-8.2867,59.41,2.75
94,Tamandaré,28,BR,1669580918,74,-8.7597,-35.1047,79.74,12.21
95,Chokurdakh,91,RU,1669580660,100,70.6333,147.9167,-40.61,1.32
96,Bara,51,NG,1669580920,24,10.3744,10.7288,74.68,7.45
97,Rincon,40,US,1669580914,61,32.296,-81.2354,78.76,18.41
98,Oshikango,47,NA,1669580922,44,-17.4,15.8833,79.81,8.84
99,Assiut,100,EG,1669580924,46,27.181,31.1837,64.47,3.89
100,Keetmanshoop,0,NA,1669580925,10,-26.5833,18.1333,82.53,9.53
101,Aspindza,81,GE,1669580927,85,41.5739,43.2483,38.44,3.27
102,Oktyabr'skoye,100,RU,1669580928,100,43.0645,44.7417,42.94,0.0
103,Saint-Leu,1,RE,1669580717,69,-21.15,55.2833,72.43,4.72
104,Brae,6,GB,1669580931,84,60.3964,-1.353,48.29,14.61
105,Te Anau,100,NZ,1669580932,94,-45.4167,167.7167,44.96,1.39
106,Barrow,100,US,1669580933,85,71.2906,-156.7887,3.22,17.27
107,Pinawa,68,CA,1669580935,71,50.1489,-95.8811,28.36,4.27
108,Berdigestyakh,100,RU,1669580936,100,62.0989,126.6992,-40.38,2.64
109,Itarema,100,BR,1669580938,72,-2.9248,-39.9167,81.19,14.65
110,Røros,100,NO,1669580939,80,62.5747,11.3842,33.64,3.44
111,Auki,59,SB,1669580941,87,-8.7676,160.7034,78.24,4.99
112,Katangli,11,RU,1669580942,91,51.7102,143.2326,7.84,10.56
113,Hithadhoo,100,MV,1669580943,75,-0.6,73.0833,80.78,4.79
114,Nabire,100,ID,1669580945,91,-3.3667,135.4833,75.18,3.89
115,Whitehorse,100,CA,1669580749,79,60.7161,-135.0538,16.57,6.91
116,Kruisfontein,4,ZA,1669580942,94,-34.0033,24.7314,58.19,5.48
117,Juneau,75,US,1669580708,97,58.3019,-134.4197,35.22,0.0
118,Tezu,0,IN,1669580950,32,27.9167,96.1667,60.44,4.52
119,Bonthe,100,SL,1669580951,79,7.5264,-12.505,79.52,7.27
120,Albany,100,US,1669580950,87,42.6001,-73.9662,44.22,1.01
121,Hambantota,87,LK,1669580953,84,6.1241,81.1185,76.68,5.19
122,Kumul,0,CN,1669580955,37,42.8,93.45,8.38,13.33
123,Kieta,100,PG,1669580956,85,-6.2167,155.6333,79.2,3.85
124,Klaksvík,70,FO,1669580957,86,62.2266,-6.589,47.32,32.39
125,Cidreira,95,BR,1669580959,79,-30.1811,-50.2056,72.57,15.03
126,Doka,98,SD,1669580960,31,13.5167,35.7667,81.7,9.78
127,Hobart,20,AU,1669580962,71,-42.8794,147.3294,51.26,12.66
128,Ribeira Grande,75,PT,1669580963,88,38.5167,-28.7,66.6,25.99
129,Meadow Lake,1,US,1669580965,27,34.8014,-106.5436,52.86,12.88
130,Buzdyak,100,RU,1669580966,98,54.5833,54.55,13.1,3.69
131,Jalu,87,LY,1669580968,65,29.0331,21.5482,60.94,4.43
132,Tuatapere,100,NZ,1669580969,76,-46.1333,167.6833,49.35,3.51
133,Ilulissat,98,GL,1669580971,73,69.2167,-51.1,14.02,3.44
134,Zaragoza,0,ES,1669580696,79,41.6561,-0.8773,49.01,1.99
135,Sayville,100,US,1669580973,91,40.7359,-73.0821,55.53,10.36
136,Aksha,100,RU,1669580974,76,50.2814,113.2867,-2.69,16.44
137,Airai,100,TL,1669580976,88,-8.9266,125.4092,60.55,1.61
138,Katsuura,100,JP,1669580977,67,35.1333,140.3,59.5,5.99
139,Pervomayskoye,100,RU,1669580979,77,43.919,46.7102,44.11,7.87
140,Mandalgovi,100,MN,1669580980,86,45.7625,106.2708,-9.69,24.72
141,Dingle,38,PH,1669580982,89,10.9995,122.6711,74.7,6.78
142,Suez,61,EG,1669580983,55,29.9737,32.5263,62.53,5.59
143,Chui,5,UY,1669580985,68,-33.6971,-53.4616,75.0,12.41
144,Fairbanks,100,US,1669580764,86,64.8378,-147.7164,9.61,0.0
145,Avera,5,US,1669580987,52,33.194,-82.5271,74.71,17.31
146,Motygino,100,RU,1669580988,96,58.1831,94.7592,-17.12,8.08
147,Pangnirtung,100,CA,1669580990,74,66.1451,-65.7125,4.08,4.25
148,Georgiyevka,75,KZ,1669580991,68,43.0369,74.7114,19.44,4.47
149,Laguna,0,US,1669580992,45,38.421,-121.4238,67.17,5.75
150,Vaini,75,TO,1669580994,83,-21.2,-175.2,82.56,4.61
151,Taihecun,96,CN,1669580995,91,45.8,130.85,10.09,0.81
152,Kapaa,0,US,1669580997,82,22.0752,-159.319,76.98,4.61
153,Oodweyne,64,SO,1669580998,43,9.4092,45.064,67.1,9.69
154,Akdepe,100,TM,1669581000,38,42.0551,59.3788,33.89,11.27
155,Truckee,37,US,1669580924,38,39.328,-120.1833,51.35,4.0
156,Magadan,100,RU,1669581002,97,59.5667,150.8,9.45,14.83
157,Flin Flon,100,CA,1669581003,86,54.7682,-101.865,24.64,6.91
158,Dawei,62,MM,1669581005,94,14.0833,98.2,74.64,3.06
159,Arrondissement de Bastia,0,FR,1669581006,72,42.6667,9.3333,53.29,4.61
160,Venado Tuerto,2,AR,1669581008,14,-33.7456,-61.9688,100.78,15.52
161,Hakui,96,JP,1669581009,78,36.8833,136.7833,47.68,5.79
162,Fereydūnkenār,75,IR,1669581010,94,36.6864,52.5225,57.42,0.0
163,Repalle,9,IN,1669581012,89,16.0167,80.85,71.08,1.63
164,Lata,86,PT,1669581013,89,40.1629,-8.3327,54.81,7.11
165,Port Hedland,80,AU,1669581015,94,-20.3167,118.5667,77.05,5.75
166,Carnarvon,0,AU,1669581016,75,-24.8667,113.6333,69.78,16.87
167,Bontang,97,ID,1669581017,85,0.1333,117.5,77.68,3.87
168,Lakes Entrance,100,AU,1669581019,70,-37.8811,147.981,54.16,4.99
169,Dikson,100,RU,1669581020,98,73.5069,80.5464,11.8,3.74
170,Nyurba,56,RU,1669581022,96,63.2842,118.3319,-24.83,7.02
171,Gingoog,71,PH,1669581023,91,8.8243,125.1042,75.63,1.28
172,Lüderitz,11,NA,1669581025,90,-26.6481,15.1594,60.51,1.41
173,Chulym,16,RU,1669581027,97,55.0997,80.9572,-15.7,4.81
174,Leningradskiy,32,RU,1669580961,88,69.3833,178.4167,-13.2,6.26
175,Port Macquarie,53,AU,1669581030,76,-31.4333,152.9167,69.89,9.91
176,Campos Belos,51,BR,1669581031,91,-13.0367,-46.7717,72.37,3.44
177,Nola,9,IT,1669581032,82,40.922,14.5329,55.26,4.59
178,Padang,100,ID,1669581034,83,-0.9492,100.3543,75.92,3.38
179,Santa Cruz del Sur,0,CU,1669581036,67,20.7147,-77.9956,82.18,5.5
180,Uthal,0,PK,1669581037,60,25.8072,66.6219,71.85,2.55
181,Séguéla,51,CI,1669581039,31,7.9611,-6.6731,77.95,2.48
182,Xining,5,CN,1669581040,65,36.6167,101.7667,24.3,5.59
183,Sulangan,98,PH,1669581042,77,11.1373,123.7228,82.44,14.65
184,Tilichiki,94,RU,1669581043,88,60.4667,166.1,18.32,9.73
185,Arrondissement de Morlaix,75,FR,1669581045,91,48.5833,-4.0,51.06,9.22
186,Apastovo,93,RU,1669581047,98,55.2029,48.5109,9.14,5.26
187,Sarab,15,IR,1669581048,70,38.6066,44.9883,43.97,1.61
188,Oddur,94,SO,1669581050,62,4.1213,43.8894,75.27,11.25
189,Bengkulu,100,ID,1669581051,88,-3.8004,102.2655,75.7,2.64
190,Aswān,100,EG,1669581052,32,24.0934,32.907,71.44,5.88
191,Mackenzie,0,CA,1669581054,58,55.2999,-123.1698,21.42,8.05
192,Panzhihua,0,CN,1669581055,72,26.5851,101.7128,48.54,1.83
193,Vostok,86,RU,1669581057,96,46.4856,135.8833,4.08,3.89
194,Mazyr,100,BY,1669580867,98,52.0495,29.2456,28.24,5.08
195,Pisco,100,PE,1669581059,73,-13.7,-76.2167,71.65,9.22
196,Barreirinhas,100,BR,1669581061,72,-2.7469,-42.8264,80.56,7.52
197,Saskylakh,98,RU,1669581062,99,71.9167,114.0833,-14.73,4.45
198,Ol'ga,100,RU,1669581063,60,43.7444,135.2892,27.57,3.69
199,Hofn,100,IS,1669581065,71,64.2539,-15.2082,41.72,4.68
200,Catuday,6,PH,1669581067,74,16.2923,119.8062,76.75,9.82
201,Constitución,14,CL,1669581056,78,-35.3333,-72.4167,63.82,7.16
202,Dunedin,23,NZ,1669581069,75,-45.8742,170.5036,53.8,1.99
203,General Cepeda,0,MX,1669581071,11,25.3833,-101.45,78.06,8.16
204,Dondo,100,MZ,1669581072,95,-19.6094,34.7431,80.11,4.63
205,Pestovo,100,RU,1669581074,95,58.5938,35.8024,16.36,6.11
206,Atuona,4,PF,1669581075,71,-9.8,-139.0333,77.76,14.45
207,Tal'menka,14,RU,1669581077,94,53.8183,83.5677,-19.62,2.64
208,Juegang,100,CN,1669581078,96,32.3174,121.1855,64.98,11.77
209,Kirakira,67,SB,1669581080,76,-10.4544,161.9205,83.12,5.44
210,Gayny,84,RU,1669581081,100,60.3071,54.3241,1.24,1.14
211,Schwedt,99,DE,1669581083,91,53.0596,14.2815,43.02,9.06
212,Los Llanos de Aridane,20,ES,1669581084,33,28.6585,-17.9182,68.13,10.36
213,Pecos,0,US,1669581050,41,31.4229,-103.4932,63.25,0.0
214,Kiryat Gat,100,IL,1669581087,100,31.61,34.7642,65.39,1.21
215,Pueblo,0,US,1669581088,48,38.2545,-104.6091,52.56,12.66
216,Mareeba,96,AU,1669581089,95,-17.0,145.4333,74.44,0.27
217,Usinsk,100,RU,1669581091,97,65.9939,57.5281,-2.97,12.41
218,Sitka,0,US,1669580900,75,57.0531,-135.33,35.49,0.0
219,Vao,100,NC,1669581093,78,-22.6667,167.4833,75.65,17.34
220,Baykit,100,RU,1669581095,97,61.67,96.37,-12.39,4.07
221,Salinas,0,US,1669581009,34,36.6777,-121.6555,68.72,6.91
222,Wajir,100,KE,1669581097,71,1.7471,40.0573,77.88,14.74
223,Jinka,92,ET,1669581099,54,5.65,36.65,68.58,2.8
224,Salinópolis,96,BR,1669581100,76,-0.6136,-47.3561,81.81,12.82
225,Camacha,40,PT,1669581101,77,33.0833,-16.3333,65.62,10.36
226,Orda,75,RU,1669581103,98,57.1951,56.9091,3.96,2.93
227,Najrān,52,SA,1669580921,46,17.4924,44.1277,63.25,2.01
228,Paamiut,100,GL,1669581105,88,61.994,-49.6678,28.72,16.89
229,Upington,0,ZA,1669581107,19,-28.4478,21.2561,79.18,4.61
230,Talnakh,100,RU,1669581108,98,69.4865,88.3972,1.2,10.16
231,Verkhoyansk,100,RU,1669581109,96,67.5447,133.385,-30.51,1.48
232,Angoche,71,MZ,1669581111,80,-16.2325,39.9086,78.3,13.18
233,Tevaitoa,39,PF,1669581112,76,-16.7833,-151.5,78.69,13.96
234,Cangzhou,100,CN,1669580897,85,38.3167,116.8667,39.45,8.39
235,Batagay,97,RU,1669581115,98,67.6333,134.6333,-32.85,2.06
236,Shache,0,CN,1669580904,25,38.4167,77.2406,38.19,9.55
237,Griffith,100,US,1669581117,86,41.5284,-87.4237,46.26,20.71
238,Dembī Dolo,100,ET,1669581119,86,8.5333,34.8,59.0,4.23
239,Zhigalovo,100,RU,1669581120,94,54.8097,105.1578,-14.19,4.0
240,Khatanga,100,RU,1669581121,100,71.9667,102.5,-26.21,2.08
241,Panipat,0,IN,1669581123,28,29.3889,76.9681,59.79,2.77
242,Skibotn,99,NO,1669581124,91,69.3913,20.2679,32.59,14.5
243,Varzob,8,TJ,1669581126,49,38.7737,68.8178,47.93,10.33
244,Lufilufi,8,WS,1669581127,76,-13.8745,-171.5986,85.78,17.83
245,Coyhaique,0,CL,1669581129,29,-45.5752,-72.0662,81.21,12.66
246,Nizwá,55,OM,1669581130,37,22.9333,57.5333,71.01,4.29
247,Rawson,74,AR,1669581059,57,-43.3002,-65.1023,71.35,13.42
248,Houston,0,US,1669580925,53,29.7633,-95.3633,76.05,11.5
249,Kismayo,100,SO,1669581134,80,-0.3582,42.5454,78.64,7.56
250,Monte Patria,0,CL,1669581135,41,-30.6919,-70.9467,81.77,9.15
251,Trojes,76,AL,1669581137,88,41.756,19.962,44.56,8.32
252,Estelí,93,NI,1669581138,78,13.0919,-86.3538,82.15,2.06
253,Parrita,93,CR,1669581140,85,9.5201,-84.3225,79.63,6.53
254,Lázaro Cárdenas,0,MX,1669581058,62,17.9583,-102.2,83.93,9.15
255,Vaitape,21,PF,1669581142,74,-16.5167,-151.75,79.11,12.48
256,Cherskiy,100,RU,1669581144,93,68.75,161.3,-19.03,3.15
257,Iqaluit,100,CA,1669581013,66,63.7506,-68.5145,11.93,13.8
258,Lifford,73,IE,1669581147,86,54.8319,-7.4836,46.31,11.7
259,Ponta Delgada,40,PT,1669581148,82,37.7333,-25.6667,64.51,17.27
260,Agirish,64,RU,1669581149,94,61.9247,63.0231,-3.03,3.69
261,Cap Malheureux,5,MU,1669581151,73,-19.9842,57.6142,71.47,3.0
262,Pogar,100,RU,1669581152,99,52.554,33.2591,32.32,7.05
263,Haines Junction,100,CA,1669581153,62,60.7522,-137.5108,15.75,2.3
264,Sørland,99,NO,1669581155,71,67.667,12.6934,44.46,11.54
265,Lompoc,0,US,1669581156,54,34.6391,-120.4579,76.69,10.36
266,Severo-Kuril'sk,84,RU,1669581157,94,50.6789,156.125,33.4,28.07
267,Gibsons,4,CA,1669581105,74,49.3997,-123.5027,47.75,3.0
268,Wilmington,40,US,1669581084,78,34.2257,-77.9447,76.91,18.41
269,Cochrane,100,CA,1669581071,87,51.1834,-114.4687,27.21,14.97
270,Weligama,95,LK,1669581163,89,5.9667,80.4167,74.71,3.56
271,Manacapuru,100,BR,1669581164,62,-3.2997,-60.6206,85.37,1.23
272,Muli,99,MV,1669581165,74,2.9167,73.5667,80.37,4.65
273,Cootamundra,12,AU,1669581167,70,-34.65,148.0333,56.95,7.31
274,Cabedelo,23,BR,1669581168,76,-6.9811,-34.8339,83.07,12.73
275,Villazón,54,BO,1669581170,22,-22.0866,-65.5942,61.39,22.66
276,Inyonga,99,TZ,1669581171,78,-6.7167,32.0667,68.41,4.38
277,Ondjiva,80,AO,1669581172,40,-17.0667,15.7333,81.57,8.21
278,Tonj,47,SS,1669581174,36,7.2737,28.6822,79.14,4.72
279,Manokwari,100,ID,1669581175,78,-0.8667,134.0833,77.86,4.0
280,Hervey Bay,100,AU,1669581176,72,-25.2986,152.8535,76.68,15.32
281,Maināguri,0,IN,1669581178,74,26.5667,88.8167,62.01,3.47
282,Banes,7,CU,1669581179,67,20.9625,-75.7186,81.7,12.59
283,Nishihara,75,JP,1669581181,86,26.1842,127.7558,75.25,11.5
284,La Ronge,100,CA,1669581182,80,55.1001,-105.2842,25.05,10.36
285,Hilo,0,US,1669581183,76,19.7297,-155.09,80.26,6.91
286,Mount Darwin,100,ZW,1669581185,54,-16.7725,31.5838,74.89,2.64
287,Zhangjiakou,76,CN,1669581186,58,40.81,114.8794,33.15,5.44
288,Murray Bridge,21,AU,1669581188,67,-35.1167,139.2667,54.12,10.56
289,Achit,52,RU,1669581189,98,56.7985,57.8994,6.01,2.55
290,Taoudenni,83,ML,1669581191,14,22.6783,-3.9836,73.24,19.33
291,Berlevåg,0,NO,1669581192,80,70.8578,29.0864,31.8,10.36
292,Beyneu,100,KZ,1669581194,59,45.3167,55.2,34.52,17.45
293,Philadelphia,100,US,1669581149,93,39.9523,-75.1638,54.9,13.8
294,Punta de Piedra,100,VE,1669581196,95,7.6176,-71.4916,77.65,2.55
295,Rubiataba,31,BR,1669581076,77,-15.1644,-49.8033,76.44,3.94
296,Vanimo,91,PG,1669581199,88,-2.6741,141.3028,77.58,3.85
297,Pachino,56,IT,1669581200,78,36.7186,15.0907,58.17,33.2
298,Salta,0,AR,1669580962,17,-24.7859,-65.4117,95.58,8.05
299,Ahipara,100,NZ,1669581202,59,-35.1667,173.1667,61.21,10.42
300,Saldanha,24,ZA,1669581204,75,-33.0117,17.9442,69.85,15.59
301,Novyy Urgal,97,RU,1669581205,98,51.0736,132.5642,4.39,0.74
302,Chicama,52,PE,1669581207,65,-7.8447,-79.1469,68.54,9.71
303,Deputatsky,75,RU,1669581208,93,69.3,139.9,-33.7,3.2
304,Sankheda,0,IN,1669581209,37,22.1667,73.5833,66.67,5.17
305,Baruun-Urt,100,MN,1669581211,93,46.6806,113.2792,0.34,13.89
306,Suwannaphum,6,TH,1669581212,83,15.6035,103.8021,75.69,4.5
307,Palpa,52,PE,1669581214,51,-14.5336,-75.1856,79.65,13.82
308,Marquette,100,US,1669581215,85,46.5333,-87.6335,35.67,10.89
309,Nouakchott,0,MR,1669580919,53,18.0858,-15.9785,78.73,9.71
310,Alice Springs,6,AU,1669581218,82,-23.7,133.8833,65.75,0.0
311,Nome,100,US,1669581219,68,64.5011,-165.4064,15.87,0.0
312,Nacogdoches,0,US,1669581220,58,31.6002,-94.6335,68.58,8.05
313,San Cristobal,100,VE,1669581222,94,7.7669,-72.225,73.58,1.52
314,Tautira,11,PF,1669581223,74,-17.7333,-149.15,78.01,10.42
315,Brønnøysund,0,NO,1669581225,61,65.4625,12.1997,44.6,18.41
316,Viedma,82,AR,1669581227,45,-40.8135,-62.9967,81.28,17.18
317,Yeppoon,100,AU,1669581228,70,-23.1333,150.7333,73.18,6.69
318,Broken Hill,13,AU,1669581230,64,-31.95,141.4333,56.95,15.41
319,Bariloche,20,AR,1669581031,19,-41.1456,-71.3082,89.35,11.5
320,Chu,44,KZ,1669581232,38,43.5983,73.7614,23.11,7.16
321,Henties Bay,81,NA,1669581233,80,-22.116,14.2845,59.5,3.91
322,Sistranda,100,NO,1669581235,78,63.7256,8.834,44.56,7.56
323,Nioro,69,GM,1669581236,14,13.35,-15.75,78.91,4.41
324,Pathein,92,MM,1669581238,95,16.7833,94.7333,74.03,1.88
325,Nova Gradiška,99,HR,1669581239,86,45.255,17.3831,40.89,3.11
326,Coihueco,0,CL,1669581241,45,-36.6167,-71.8333,84.94,10.36
327,Témiscaming,100,CA,1669581242,87,46.7212,-79.0971,38.75,4.61
328,Malinyi,4,TZ,1669581243,64,-8.9333,36.1333,76.48,4.18
329,Torbay,100,CA,1669581245,96,47.6666,-52.7314,41.58,16.11
330,Bom Jesus da Lapa,96,BR,1669581246,88,-13.255,-43.4181,73.87,3.69
331,Bathsheba,40,BB,1669581248,65,13.2167,-59.5167,84.81,23.02
332,Akhtubinsk,55,RU,1669581249,60,48.2795,46.1722,31.21,9.44
333,Margate,100,GB,1669581250,97,51.3813,1.3862,51.31,1.99
334,Zvenigorod,100,RU,1669581252,94,55.7333,36.8475,25.18,8.32
335,Aksu,0,CN,1669581253,35,41.1231,80.2644,27.32,7.58
336,Qaqortoq,96,GL,1669581254,90,60.7167,-46.0333,25.09,8.7
337,Alwaye,100,IN,1669581256,100,10.1167,76.35,75.15,4.61
338,Tahe,67,CN,1669581257,100,52.3333,124.7333,-11.22,3.18
339,Colares,40,PT,1669581259,90,38.7992,-9.4469,61.75,14.0
340,Makkah al Mukarramah,0,SA,1669581260,67,21.4267,39.8261,77.27,3.76
341,Lebu,0,CL,1669581261,66,-37.6167,-73.65,63.93,10.54
342,Muroto-misakicho,100,JP,1669581263,63,33.2833,134.15,62.91,8.84
343,Kostino,68,RU,1669581264,98,58.9097,53.2691,5.43,1.25
344,Tiarei,4,PF,1669581266,74,-17.5333,-149.3333,84.22,11.74
345,Asău,100,RO,1669581267,99,46.4333,26.4,34.72,2.62
346,Kita,100,ML,1669581269,15,13.0349,-9.4895,77.94,4.12
347,Ponta do Sol,1,PT,1669581270,75,32.6667,-17.1,70.0,5.06
348,Esperance,99,AU,1669581271,66,-33.8667,121.9,58.03,7.94
349,Byron Bay,81,AU,1669581273,85,-28.65,153.6167,76.71,9.44
350,Alyangula,100,AU,1669581274,78,-13.8483,136.4192,81.9,5.73
351,Takoradze,21,GH,1669581200,83,4.8845,-1.7554,79.29,9.84
352,Neturhāt,0,IN,1669581277,55,23.4833,84.2667,49.91,2.1
353,Osa,64,RU,1669581027,98,57.2829,55.4567,3.85,2.86
354,Conde,20,BR,1669581279,65,-7.2597,-34.9075,81.86,9.22
355,Clyde River,0,CA,1669581282,76,70.4692,-68.5914,-23.57,5.75
356,Khasan,100,RU,1669581283,73,42.4308,130.6434,31.89,4.14
357,Santa Cruz de La Palma,20,ES,1669581284,68,28.6835,-17.7642,72.14,10.36
358,Pitimbu,13,BR,1669581286,73,-7.4706,-34.8086,82.99,10.69
359,Borovoy,0,RU,1669581287,76,55.4333,86.0833,-20.92,6.71
360,Saint-Philippe,7,RE,1669581289,73,-21.3585,55.7679,71.19,6.67
361,Grindavik,0,IS,1669581290,87,63.8424,-22.4338,36.07,12.66
362,Alofi,75,NU,1669581291,78,-19.0595,-169.9187,80.49,10.36
363,Saint-Augustin,100,CA,1669581293,90,51.226,-58.6502,31.6,10.65
364,Codrington,100,AU,1669581294,84,-38.2667,141.9667,49.75,10.02
365,Port Hardy,75,CA,1669581073,81,50.6996,-127.4199,42.98,9.22
366,Chumikan,21,RU,1669581297,83,54.7183,135.315,-3.26,17.81
367,Acapulco de Juárez,75,MX,1669581268,70,16.8634,-99.8901,85.82,6.91
368,Meulaboh,90,ID,1669581299,87,4.1363,96.1285,75.7,2.19
369,Mayo,100,US,1669581300,94,38.8876,-76.5119,62.26,11.5
370,Shelburne,100,CA,1669581302,95,44.0787,-80.2041,38.23,6.24
371,Burnie,97,AU,1669581304,85,-41.0667,145.9167,48.94,10.51
372,Vila Velha,100,BR,1669581165,94,-20.3297,-40.2925,75.15,17.27
373,Lincoln,0,US,1669581300,45,40.8,-96.667,45.97,11.5
374,Naze,100,JP,1669581307,77,28.3667,129.4833,70.72,14.94
375,Gemeente Tiel,100,NL,1669581151,94,51.8833,5.4333,45.01,8.99
376,Atambua,100,ID,1669581310,85,-9.1061,124.8925,74.26,0.87
377,Gold Coast,95,AU,1669581150,82,-28.0,153.4333,78.01,8.05
378,Vytegra,100,RU,1669581313,91,61.0064,36.4481,17.42,8.01
379,Homer,0,US,1669581256,59,59.6425,-151.5483,26.47,10.36
380,Kutum,80,SD,1669581316,21,14.2,24.6667,65.55,3.8
381,Laas,99,IT,1669581317,61,46.6166,10.7002,38.35,1.48
382,Gornopravdinsk,93,RU,1669581319,92,60.05,69.9,-6.68,6.13
383,Shahreza,5,IR,1669581320,54,32.0339,51.8794,49.6,2.44
384,Mill Valley,100,US,1669581125,58,37.906,-122.545,66.9,0.38
385,Mogadishu,100,SO,1669581120,77,2.0371,45.3438,80.24,12.44
386,Bahía Solano,100,CO,1669581324,92,6.2262,-77.4044,76.37,7.34
387,Buraidah,80,SA,1669581325,42,26.326,43.975,72.05,11.16
388,Faanui,18,PF,1669581327,75,-16.4833,-151.75,79.05,13.22
389,Xichang,0,CN,1669581328,74,27.8964,102.2634,44.56,0.85
390,Haverhill,100,US,1669581330,53,42.7762,-71.0773,54.07,4.61
391,Arrondissement de Mayenne,100,FR,1669581215,95,48.3333,-0.6667,49.44,5.23
392,Alta Floresta,40,BR,1669581332,100,-9.8756,-56.0861,76.82,2.3
393,Fayaoué,54,NC,1669581334,78,-20.65,166.5333,78.6,8.86
394,Arrondissement du Havre,100,FR,1669581335,100,49.5833,0.3333,50.4,4.61
395,Kyabé,43,TD,1669581336,26,9.4515,18.9449,78.84,3.06
396,High Level,100,CA,1669581303,79,58.5169,-117.136,14.11,12.66
397,Paeroa,92,NZ,1669581339,56,-37.3667,175.6667,64.26,10.92
398,Eureka,7,US,1669581340,65,40.8021,-124.1637,56.19,4.0
399,Sioux Lookout,100,CA,1669581342,64,50.1001,-91.917,28.47,3.44
400,Sikonge,99,TZ,1669581343,60,-5.6333,32.7667,71.35,1.23
401,San Vicente,66,AR,1669581172,85,-26.6167,-54.1333,68.0,7.09
402,Nikolskoye,98,RU,1669581346,96,59.7035,30.7861,24.69,4.85
403,Kungurtug,100,RU,1669581347,99,50.5994,97.5228,-24.59,1.21
404,Kidal,100,ML,1669581348,16,18.4411,1.4078,75.09,8.48
405,Kamaishi,4,JP,1669581350,70,39.2667,141.8833,41.25,5.3
406,Manaure,98,CO,1669581351,72,11.7751,-72.4445,83.73,14.5
407,Janaúba,76,BR,1669581353,83,-15.8025,-43.3089,74.86,4.85
408,Makakilo City,0,US,1669581354,60,21.3469,-158.0858,78.69,9.22
409,Batesville,100,US,1669581355,66,35.7698,-91.641,54.01,5.75
410,Darovskoy,70,RU,1669581357,98,58.77,47.9564,6.62,2.62
411,Beloha,81,MG,1669581358,72,-25.1667,45.05,74.14,4.43
412,Bantou,90,CN,1669581360,95,26.2151,117.4893,66.61,1.19
413,Faya,2,SA,1669581361,64,18.3851,42.4509,55.51,2.3
414,Batemans Bay,100,AU,1669581363,94,-35.7167,150.1833,61.11,3.94
415,Kangaatsiaq,89,GL,1669581364,89,68.3065,-53.4641,16.63,7.74
416,Saint George,0,US,1669581287,35,37.1041,-113.5841,54.43,4.61
417,Touros,84,BR,1669581367,76,-5.1989,-35.4608,78.78,12.86
418,Zhuhai,40,CN,1669581369,94,22.2769,113.5678,76.78,10.36
419,Caravelas,100,BR,1669581370,96,-17.7125,-39.2481,74.57,9.15
420,Beringovskiy,100,RU,1669581372,82,63.05,179.3167,23.25,10.87
421,Mikuni,100,JP,1669581373,55,36.2171,136.1519,46.31,5.12
422,Kralendijk,40,BQ,1669581375,70,12.15,-68.2667,84.18,14.97
423,Tshane,17,BW,1669581376,54,-24.0196,21.8684,72.52,4.07
424,Imperial,2,US,1669581377,15,33.0334,-115.4175,76.44,1.3
425,Houma,0,US,1669581156,56,29.5958,-90.7195,77.0,16.11
426,Cockburn Town,40,TC,1669581380,65,21.4612,-71.1419,82.36,6.91
427,Ostrovnoy,96,RU,1669581382,84,68.0531,39.5131,25.29,22.17
428,Kon Tum,26,VN,1669581383,97,14.35,108.0,67.1,1.19
429,Warka,92,PL,1669581385,96,51.7843,21.1909,37.0,4.61
430,Goderich,100,CA,1669581386,93,43.7501,-81.7165,40.91,13.8
431,Chapada dos Guimarães,0,BR,1669581387,20,-15.4606,-55.7497,89.26,5.79
432,Yangi Marg`ilon,100,UZ,1669581389,93,40.4272,71.7189,38.12,2.3
433,Buala,77,SB,1669581390,80,-8.145,159.5921,81.97,5.17
434,Liverpool,0,GB,1669581223,92,53.4106,-2.9779,47.98,5.75
435,Salalah,0,OM,1669581393,78,17.0151,54.0924,75.29,3.44
436,Hasaki,100,JP,1669581394,58,35.7333,140.8333,43.2,4.45
437,Isfana,4,KG,1669581395,43,39.8386,69.5306,28.96,9.75
438,Cabangahan,85,PH,1669581397,80,9.0781,122.9469,79.16,6.78
439,Karaton,96,ID,1669581398,93,-6.3424,106.1045,73.56,2.51
440,Vallenar,0,CL,1669581399,41,-28.5708,-70.7581,80.56,8.23
441,Epe,17,NG,1669581401,84,6.5841,3.9834,78.89,6.2
442,Pocking,15,DE,1669581402,92,48.4,13.3167,38.95,5.73
443,Atmakūr,12,IN,1669581404,69,15.8833,78.5833,68.43,5.19
444,La Unión,60,PE,1669581405,49,-5.4,-80.75,80.85,15.97
445,Benjamín Aceval,0,PY,1669581406,55,-24.9667,-57.5667,91.6,7.07
446,West Linton,100,GB,1669581408,85,55.7497,-3.3561,46.29,11.48
447,Mayumba,97,GA,1669581409,85,-3.432,10.6554,77.32,3.47
448,Kinkala,100,CG,1669581410,95,-4.3614,14.7644,70.93,2.24
449,Palu,98,ID,1669581412,93,-0.8917,119.8707,74.44,2.8
450,Amambai,70,BR,1669581413,68,-23.1042,-55.2258,77.94,4.83
451,Iquique,26,CL,1669581157,71,-20.2208,-70.1431,69.84,10.58
452,Pombal,99,BR,1669581415,27,-6.7703,-37.8017,92.57,7.81
453,Sinnamary,94,GF,1669581417,85,5.3833,-52.95,78.85,8.57
454,Santa Cruz de la Sierra,20,BO,1669581418,22,-17.8,-63.1667,101.66,8.05
455,Ankazobe,10,MG,1669581419,68,-18.3167,47.1167,63.18,3.87
456,Koshurnikovo,100,RU,1669581421,100,54.1667,93.3,-15.34,2.3
457,Kutiyāna,0,IN,1669581422,35,21.6233,69.9817,69.26,6.4
458,Gaurnadi,1,BD,1669581423,60,22.9667,90.2333,65.8,4.99
459,Zhezkazgan,89,KZ,1669581425,31,47.8043,67.7144,11.44,17.69
460,Poum,56,NC,1669581426,78,-20.2333,164.0167,79.25,14.58
461,Neiafu,40,TO,1669581428,83,-18.65,-173.9833,83.08,11.5
462,Warangal,0,IN,1669581429,49,18.0,79.5833,61.59,1.83
463,Arrondissement de Vire,100,FR,1669581430,98,48.9167,-0.8333,49.39,7.74
464,Mayya,95,RU,1669581432,100,61.7333,130.2811,-41.69,2.68
465,Namatanai,87,PG,1669581433,71,-3.6667,152.4333,82.38,4.72
466,Hūn,91,LY,1669581434,71,29.1268,15.9477,57.15,25.97
467,Matamoros,0,MX,1669581421,15,25.5333,-103.25,76.1,0.0
468,Amahai,100,ID,1669581437,83,-3.3333,128.9167,78.4,4.45
469,Shimoda,100,JP,1669581438,78,34.6667,138.95,53.1,4.9
470,Jacareacanga,100,BR,1669581440,67,-6.2222,-57.7528,85.48,0.51
471,Conakry,100,GN,1669581441,65,9.538,-13.6773,81.72,6.73
472,Akom,93,CM,1669581442,94,2.6678,12.7109,67.96,2.75
473,Orlik,97,RU,1669581444,86,52.5178,99.825,-26.93,3.74
474,Khāsh,7,IR,1669581445,25,28.2211,61.2158,53.19,2.42
475,Okhotsk,66,RU,1669581446,83,59.3833,143.3,-5.1,25.28
476,Russell,0,US,1669581448,45,32.3502,-85.1999,69.4,10.36
477,Pamanukan,100,ID,1669581449,83,-6.2842,107.8106,78.26,1.92
478,Havre-St-Pierre,100,CA,1669581450,87,50.2334,-63.5986,37.4,8.05
479,Rio Grande,0,BR,1669581452,81,-32.035,-52.0986,80.71,14.5
480,Inuvik,75,CA,1669581429,76,68.3499,-133.7218,-15.74,2.3
481,Berbera,48,SO,1669581454,78,10.4396,45.0143,77.52,6.31
482,Sicamous,35,CA,1669581456,76,50.8331,-118.9856,38.37,4.54
483,Ambon City,40,ID,1669581457,94,-3.6954,128.1814,75.34,3.44
484,Kondopoga,100,RU,1669581459,89,62.2057,34.2614,15.48,3.38
485,Concarneau,89,FR,1669581460,83,47.875,-3.9225,54.82,14.12
486,Progreso,65,MX,1669581461,63,21.2833,-89.6667,88.11,11.63
487,Tegul'det,100,RU,1669581463,94,57.3064,88.1667,-8.63,7.92
488,São João da Barra,88,BR,1669581464,93,-21.6403,-41.0511,75.29,19.89
489,Provincie Utrecht,100,NL,1669581307,95,52.0,5.25,45.09,3.0
490,San Patricio,0,US,1669581467,55,28.017,-97.5169,80.19,2.64
491,Ruteng,100,ID,1669581468,91,-8.6136,120.4721,64.15,0.74
492,Chitipa,47,MW,1669581470,63,-9.7024,33.2697,68.43,2.24
493,Mbour,0,SN,1669581471,50,14.422,-16.9638,76.05,15.01
494,Almaznyy,100,RU,1669581472,96,48.0448,40.045,33.31,7.81
495,Orotukan,100,RU,1669581474,99,62.2667,151.7,-17.93,4.83
496,Yulara,71,AU,1669581475,24,-25.2406,130.9889,70.99,12.03
497,Gratia,100,RO,1669581476,69,44.4333,25.45,42.51,5.59
498,Rochester,100,US,1669581478,93,43.1548,-77.6156,46.4,12.66
499,Mujiayingzi,87,CN,1669581479,55,42.1167,118.7833,23.85,5.08
500,Mount Gambier,100,AU,1669581481,82,-37.8333,140.7667,51.98,7.87
501,Bambanglipuro,100,ID,1669581408,95,-7.95,110.2833,74.68,2.13
502,Bonoua,25,CI,1669581483,84,5.2741,-3.595,80.22,5.5
503,Ballina,99,AU,1669581485,88,-28.8667,153.5667,69.78,6.87
504,Indi,3,IN,1669581486,56,17.1667,75.9667,71.92,8.77
505,Quelimane,0,MZ,1669581488,83,-17.8786,36.8883,80.55,17.27
506,Uiraúna,99,BR,1669581489,32,-6.5183,-38.4122,89.85,5.53
507,Cristalina,94,BR,1669581491,59,-16.7686,-47.6136,72.3,2.93
508,Bandarbeyla,46,SO,1669581492,75,9.4942,50.8122,78.31,17.45
509,Kumano,100,JP,1669581493,74,34.3442,132.5894,50.92,2.66
510,Nouadhibou,0,MR,1669581495,77,20.931,-17.0347,67.98,18.41
511,Ancuya,100,CO,1669581496,96,1.2703,-77.5157,82.15,4.61
512,Porto Walter,67,BR,1669581498,30,-8.2686,-72.7439,96.51,2.66
513,Kupang,97,ID,1669581499,79,-10.1667,123.5833,80.08,3.36
514,Kinsale,40,IE,1669581501,93,51.7075,-8.5306,45.77,12.66
515,Norman Wells,100,CA,1669581332,71,65.282,-126.8329,1.44,14.97
516,Muros,10,ES,1669581503,93,42.7762,-9.0603,49.68,11.65
517,Río Gallegos,0,AR,1669581505,32,-51.6226,-69.2181,64.45,21.85
518,Wattegama,95,LK,1669581506,94,6.7989,81.4808,72.54,2.33
519,Half Moon Bay,40,US,1669581508,62,37.4636,-122.4286,69.48,5.75
520,Obo,95,CF,1669581509,62,5.3998,26.4869,71.38,4.72
521,Puerto Suárez,20,BO,1669581510,29,-18.95,-57.8,95.56,10.36
522,Trat,93,TH,1669581512,97,12.5,102.5,80.91,2.1
523,Rodeo,0,US,1669581513,57,38.033,-122.2669,68.25,4.61
524,Nantucket,40,US,1669581251,83,41.2835,-70.0995,57.34,9.22
525,Minna,0,NG,1669581289,39,9.6139,6.5569,80.31,2.3
526,Honiara,84,SB,1669581516,81,-9.4333,159.95,81.27,3.36
527,Clifton,100,US,1669581324,90,40.8584,-74.1638,50.4,10.36
528,Waingapu,98,ID,1669581519,83,-9.6567,120.2641,79.68,3.49
529,Derzhavīnsk,41,KZ,1669581520,73,51.1,66.3167,-2.56,15.82
530,Qax,86,AZ,1669581522,86,41.4225,46.9242,43.79,1.68
531,Milove,100,UA,1669581524,77,49.3787,40.1302,32.99,8.86
532,Am Timan,60,TD,1669581525,21,11.0297,20.2827,78.98,4.41
533,Ketchikan,20,US,1669581526,75,55.3422,-131.6461,36.07,8.05
534,Bilma,94,NE,1669581528,30,18.6853,12.9164,69.64,6.4
535,Halifax,96,CA,1669581420,73,44.6453,-63.5724,46.4,12.66
536,Agüimes,20,ES,1669581530,83,27.9054,-15.4461,69.66,17.27
537,Portland,100,US,1669581406,95,45.5234,-122.6762,47.57,6.91
538,Springbok,9,ZA,1669581533,25,-29.6643,17.8865,69.55,4.97
539,Bodden Town,20,KY,1669581534,70,19.2833,-81.25,86.0,13.8
540,Puerto Escondido,57,MX,1669581536,67,15.85,-97.0667,84.34,6.42
541,Pinega,100,RU,1669581537,93,64.7001,43.3936,10.99,6.82
542,Liwale,1,TZ,1669581538,83,-9.7667,37.9333,69.98,5.88
543,Mossamedes,100,AO,1669581540,84,-15.1961,12.1522,69.98,6.76
544,Sabha,31,LY,1669581541,47,27.0377,14.4283,56.68,13.06
545,Kudahuvadhoo,100,MV,1669581542,73,2.6708,72.8944,80.56,8.79
546,Almeirim,89,BR,1669581544,57,-1.5233,-52.5817,85.1,1.74
547,Khromtau,100,KZ,1669581545,81,50.2503,58.4347,11.66,15.08
548,Fukuechō,89,JP,1669581546,71,32.6881,128.8419,66.96,22.82
549,Kendari,79,ID,1669581548,92,-3.945,122.4989,75.33,2.57
550,Boma,98,GH,1669581549,63,7.0805,-2.1697,78.28,3.04
551,Nemuro,56,JP,1669581551,71,43.3236,145.575,36.14,9.93
552,Erenhot,94,CN,1669581552,53,43.6475,111.9767,27.05,19.62
553,Longview,0,US,1669581412,56,32.5007,-94.7405,66.45,5.75
554,Acajutla,98,SV,1669581555,76,13.5928,-89.8275,81.63,3.42
555,Macao,40,MO,1669581556,94,22.2006,113.5461,76.8,10.36
556,Panguna,100,PG,1669581558,91,-6.3164,155.4848,71.47,1.43
557,Srandakan,100,ID,1669581559,95,-7.9386,110.2506,74.82,2.08
558,Yar-Sale,89,RU,1669581560,96,66.8333,70.8333,-3.87,4.76
559,Batangafo,23,CF,1669581562,32,7.3008,18.2833,75.63,0.96
560,Ilaya,64,PH,1669581563,86,5.8153,125.2267,76.57,4.0
561,Omboué,100,GA,1669581565,85,-1.5746,9.2618,77.5,4.18
562,Ust'-Ordynskiy,100,RU,1669581566,85,52.805,104.7508,-12.93,9.98
563,College,75,US,1669581341,85,64.8569,-147.8028,9.59,0.0
564,Jiuquan,97,CN,1669581569,78,39.7432,98.5174,6.04,7.49
565,Talcahuano,100,CL,1669581315,88,-36.7167,-73.1167,58.68,9.22
